{ "locations" : [
	{
		"name" : "Crossgates",
		"street" : "1 Crossgates Mall Road",
		"city" : "Albany",
		"state" : "NY",
		"zip" : "12203",
		"category" : "Mall",
		"county" : "",
		"country" : "United States",
		"phone" : "1-518-389-0140",
		"images" : "/images/stores/crossgates_hero.jpg",
		"countryCode" : "US"
	},{
		"name" : "Walden Galleria",
		"street" : "G116 Walden Galleria",
		"city" : "Buffalo",
		"state" : "NY",
		"zip" : "14225",
		"category" : "Mall",
		"county" : "",
		"country" : "United States",
		"phone" : "1-716-706-2000",
		"images" : "/images/stores/waldengalleria_hero.jpg",
		"countryCode" : "US",
		"latitude" : 42.909795,
		"longitude" : -78.762278
	},{
		"name" : "Roosevelt Field",
		"street" : "630 Old Country Road",
		"city" : "Garden City",
		"state" : "NY",
		"zip" : "11530",
		"category" : "Mall",
		"county" : "",
		"country" : "United States",
		"phone" : "1-516-248-3347",
		"images" : "/images/stores/rooseveltfield_hero.jpg",
		"countryCode" : "US",
		"latitude" : 40.739971,
		"longitude" : -73.613576
	},{
		"name" : "Walt Whitman",
		"street" : "160 Walt Whitman Road",
		"city" : "Huntington Station",
		"state" : "NY",
		"zip" : "11746",
		"category" : "Mall",
		"county" : "",
		"country" : "United States",
		"phone" : "1-631-760-0160",
		"images" : "/images/stores/waltwhitman_hero.jpg",
		"countryCode" : "US",
		"latitude" : 40.830402,
		"longitude" : -73.411016
	},{
		"name" : "Smith Haven",
		"street" : "518 Smith Haven Mall",
		"city" : "Lake Grove",
		"state" : "NY",
		"zip" : "11755",
		"category" : "Mall",
		"county" : "",
		"country" : "United States",
		"phone" : "1-631-982-2500",
		"images" : "/images/stores/smithhaven_hero.jpg",
		"countryCode" : "US",
		"latitude" : 40.862987,
		"longitude" : -73.129721
	},{
		"name" : "Manhasset",
		"street" : "1900 Northern Boulevard",
		"city" : "Manhasset",
		"state" : "NY",
		"zip" : "11030",
		"category" : "Mall",
		"county" : "",
		"country" : "United States",
		"phone" : "1-516-734-2420",
		"images" : "/images/stores/manhasset_hero.jpg",
		"countryCode" : "US",
		"latitude" : 40.794812,
		"longitude" : -73.676907
	},{
		"name" : "Fifth Avenue",
		"street" : "767 Fifth Avenue",
		"city" : "New York",
		"state" : "NY",
		"zip" : "10153",
		"category" : "Outdoors",
		"county" : "",
		"country" : "United States",
		"phone" : "1-212-336-1440",
		"images" : [
			"/images/stores/fifthavenue_hero.jpg",
			"/images/stores/fifthavenue_gallery_image4.jpg",
			"/images/stores/fifthavenue_gallery_image2.jpg",
			"/images/stores/fifthavenue_gallery_image5.jpg",
			"/images/stores/fifthavenue_gallery_image3.jpg",
			"/images/stores/fifthavenue_gallery_image6.jpg"
		],
		"countryCode" : "US",
		"latitude" : 40.763827,
		"longitude" : -73.972949
	},{
		"name" : "Grand Central",
		"street" : "45 Grand Central Terminal",
		"city" : "New York",
		"state" : "NY",
		"zip" : "10017",
		"category" : "Train Station",
		"county" : "",
		"country" : "United States",
		"phone" : "1-212-284-1800",
		"images" : [
			"/images/stores/grandcentral_hero.jpg",
			"/images/stores/grandcentral_gallery_image4.jpg",
			"/images/stores/grandcentral_gallery_image2.jpg",
			"/images/stores/grandcentral_gallery_image5.jpg",
			"/images/stores/grandcentral_gallery_image3.jpg",
			"/images/stores/grandcentral_gallery_image6.jpg",
			"/images/stores/grandcentral_gallery_image7.jpg"
		],
		"countryCode" : "US",
		"latitude" : 40.752326,
		"longitude" : -73.978098
	},{
		"name" : "SoHo",
		"street" : "103 Prince Street",
		"city" : "New York",
		"state" : "NY",
		"zip" : "10012",
		"category" : "Outdoors",
		"county" : "",
		"country" : "United States",
		"phone" : "1-212-226-3126",
		"images" : "/images/stores/soho_hero.jpg",
		"countryCode" : "US",
		"latitude" : 40.724918,
		"longitude" : -73.999144
	},{
		"name" : "Upper West Side",
		"street" : "1981 Broadway",
		"city" : "New York",
		"state" : "NY",
		"zip" : "10023",
		"category" : "Outdoors",
		"county" : "",
		"country" : "United States",
		"phone" : "1-212-209-3400",
		"images" : [
			"/images/stores/upperwestside_hero.jpg",
			"/images/stores/uws_photo2.jpg",
			"/images/stores/uws_photo3.jpg",
			"/images/stores/uws_photo4.jpg",
			"/images/stores/uws_photo5.jpg",
			"/images/stores/uws_photo6.jpg"
		],
		"countryCode" : "US",
		"latitude" : 40.775116,
		"longitude" : -73.982656
	},{
		"name" : "West 14th Street",
		"street" : "401 W 14th Street",
		"city" : "New York",
		"state" : "NY",
		"zip" : "10014",
		"category" : "Outdoors",
		"county" : "",
		"country" : "United States",
		"phone" : "1-212-444-3400",
		"images" : "/images/stores/west14thstreet_hero.jpg",
		"countryCode" : "US",
		"latitude" : 40.741223,
		"longitude" : -74.005504
	},{
		"name" : "Staten Island",
		"street" : "2655 Richmond Avenue",
		"city" : "Staten Island",
		"state" : "NY",
		"zip" : "10314",
		"category" : "Mall",
		"county" : "",
		"country" : "United States",
		"phone" : "1-718-568-2230",
		"images.bak" : "/images/stores/statenisland_hero.jpg",
		"countryCode" : "US",
		"latitude" : 40.58199,
		"longitude" : -74.166071
	}
]}
